header: 
  seq: 117
  stamp: 
    secs: 1693243244
    nsecs:    224455
  frame_id: "gps"
status: 
  status: 2
  service: 1
latitude: 37.2987738
longitude: 126.83780449999999
altitude: 32.712
position_covariance: [0.000225, 0.0, 0.0, 0.0, 0.000225, 0.0, 0.0, 0.0, 0.000529]
position_covariance_type: 2
---
header: 
  seq: 118
  stamp: 
    secs: 1693243245
    nsecs:    224314
  frame_id: "gps"
status: 
  status: 2
  service: 1
latitude: 37.298778
longitude: 126.8378027
altitude: 32.681
position_covariance: [0.00019600000000000002, 0.0, 0.0, 0.0, 0.00019600000000000002, 0.0, 0.0, 0.0, 0.00048399999999999995]
position_covariance_type: 2
---
header: 
  seq: 119
  stamp: 
    secs: 1693243246
    nsecs:    224173
  frame_id: "gps"
status: 
  status: 2
  service: 1
latitude: 37.2987847
longitude: 126.8377981
altitude: 32.659
position_covariance: [0.00019600000000000002, 0.0, 0.0, 0.0, 0.00019600000000000002, 0.0, 0.0, 0.0, 0.000576]
position_covariance_type: 2
---
header: 
  seq: 120
  stamp: 
    secs: 1693243247
    nsecs:    224032
  frame_id: "gps"
status: 
  status: 2
  service: 1
latitude: 37.2987938
longitude: 126.8377932
altitude: 32.621
position_covariance: [0.00019600000000000002, 0.0, 0.0, 0.0, 0.00019600000000000002, 0.0, 0.0, 0.0, 0.00048399999999999995]
position_covariance_type: 2
---
header: 
  seq: 121
  stamp: 
    secs: 1693243248
    nsecs:    223892
  frame_id: "gps"
status: 
  status: 2
  service: 1
latitude: 37.2988028
longitude: 126.83778609999999
altitude: 32.504
position_covariance: [0.00019600000000000002, 0.0, 0.0, 0.0, 0.00019600000000000002, 0.0, 0.0, 0.0, 0.0004]
position_covariance_type: 2
---
header: 
  seq: 122
  stamp: 
    secs: 1693243249
    nsecs:    223753
  frame_id: "gps"
status: 
  status: 2
  service: 1
latitude: 37.2988129
longitude: 126.837779
altitude: 32.468
position_covariance: [0.00019600000000000002, 0.0, 0.0, 0.0, 0.00019600000000000002, 0.0, 0.0, 0.0, 0.0004]
position_covariance_type: 2
---
header: 
  seq: 123
  stamp: 
    secs: 1693243250
    nsecs:    223615
  frame_id: "gps"
status: 
  status: 2
  service: 1
latitude: 37.2988229
longitude: 126.8377709
altitude: 32.487
position_covariance: [0.00019600000000000002, 0.0, 0.0, 0.0, 0.00019600000000000002, 0.0, 0.0, 0.0, 0.0004]
position_covariance_type: 2
---
header: 
  seq: 124
  stamp: 
    secs: 1693243251
    nsecs:    223477
  frame_id: "gps"
status: 
  status: 2
  service: 1
latitude: 37.298832999999995
longitude: 126.83776309999999
altitude: 32.5
position_covariance: [0.00019600000000000002, 0.0, 0.0, 0.0, 0.00019600000000000002, 0.0, 0.0, 0.0, 0.000361]
position_covariance_type: 2
---
header: 
  seq: 125
  stamp: 
    secs: 1693243252
    nsecs:    223339
  frame_id: "gps"
status: 
  status: 2
  service: 1
latitude: 37.2988433
longitude: 126.8377555
altitude: 32.492
position_covariance: [0.00019600000000000002, 0.0, 0.0, 0.0, 0.00019600000000000002, 0.0, 0.0, 0.0, 0.000529]
position_covariance_type: 2
---
header: 
  seq: 126
  stamp: 
    secs: 1693243253
    nsecs:    223202
  frame_id: "gps"
status: 
  status: 2
  service: 1
latitude: 37.2988541
longitude: 126.8377483
altitude: 32.493
position_covariance: [0.00019600000000000002, 0.0, 0.0, 0.0, 0.00019600000000000002, 0.0, 0.0, 0.0, 0.000576]
position_covariance_type: 2
---
header: 
  seq: 127
  stamp: 
    secs: 1693243254
    nsecs:    223066
  frame_id: "gps"
status: 
  status: 2
  service: 1
latitude: 37.2988646
longitude: 126.83774129999999
altitude: 32.539
position_covariance: [0.00019600000000000002, 0.0, 0.0, 0.0, 0.00019600000000000002, 0.0, 0.0, 0.0, 0.00048399999999999995]
position_covariance_type: 2
---
header: 
  seq: 128
  stamp: 
    secs: 1693243255
    nsecs:    222931
  frame_id: "gps"
status: 
  status: 2
  service: 1
latitude: 37.2988751
longitude: 126.8377342
altitude: 32.512
position_covariance: [0.00019600000000000002, 0.0, 0.0, 0.0, 0.00019600000000000002, 0.0, 0.0, 0.0, 0.00048399999999999995]
position_covariance_type: 2
---
header: 
  seq: 129
  stamp: 
    secs: 1693243256
    nsecs:    222795
  frame_id: "gps"
status: 
  status: 2
  service: 1
latitude: 37.298885
longitude: 126.83772809999999
altitude: 32.503
position_covariance: [0.00019600000000000002, 0.0, 0.0, 0.0, 0.00019600000000000002, 0.0, 0.0, 0.0, 0.0004]
position_covariance_type: 2
---
header: 
  seq: 130
  stamp: 
    secs: 1693243257
    nsecs:    222661
  frame_id: "gps"
status: 
  status: 2
  service: 1
latitude: 37.2988947
longitude: 126.83772189999999
altitude: 32.489
position_covariance: [0.00019600000000000002, 0.0, 0.0, 0.0, 0.00019600000000000002, 0.0, 0.0, 0.0, 0.00044100000000000004]
position_covariance_type: 2
---
header: 
  seq: 131
  stamp: 
    secs: 1693243258
    nsecs:    222526
  frame_id: "gps"
status: 
  status: 2
  service: 1
latitude: 37.2989044
longitude: 126.837716
altitude: 32.554
position_covariance: [0.00019600000000000002, 0.0, 0.0, 0.0, 0.00019600000000000002, 0.0, 0.0, 0.0, 0.00048399999999999995]
position_covariance_type: 2
---
header: 
  seq: 132
  stamp: 
    secs: 1693243259
    nsecs:    222393
  frame_id: "gps"
status: 
  status: 2
  service: 1
latitude: 37.298914499999995
longitude: 126.83770969999999
altitude: 32.567
position_covariance: [0.00019600000000000002, 0.0, 0.0, 0.0, 0.00019600000000000002, 0.0, 0.0, 0.0, 0.00044100000000000004]
position_covariance_type: 2
---
header: 
  seq: 133
  stamp: 
    secs: 1693243260
    nsecs:    222260
  frame_id: "gps"
status: 
  status: 2
  service: 1
latitude: 37.298924
longitude: 126.83770419999999
altitude: 32.596000000000004
position_covariance: [0.00019600000000000002, 0.0, 0.0, 0.0, 0.00019600000000000002, 0.0, 0.0, 0.0, 0.00048399999999999995]
position_covariance_type: 2
---
header: 
  seq: 134
  stamp: 
    secs: 1693243261
    nsecs:    222127
  frame_id: "gps"
status: 
  status: 2
  service: 1
latitude: 37.2989299
longitude: 126.8377022
altitude: 32.588
position_covariance: [0.00019600000000000002, 0.0, 0.0, 0.0, 0.00019600000000000002, 0.0, 0.0, 0.0, 0.00044100000000000004]
position_covariance_type: 2
---
